{"type":"FeatureCollection","features":[{"type":"Feature","properties":{"site":"Hollands Wood"},"geometry":{"type":"Point","coordinates":[-1.569780664,50.83452834]}},{"type":"Feature","properties":{"site":"Ashurst"},"geometry":{"type":"Point","coordinates":[-1.528772969,50.88687599]}},{"type":"Feature","properties":{"site":"Aldridge Hill"},"geometry":{"type":"Point","coordinates":[-1.598190622,50.83249552]}},{"type":"Feature","properties":{"site":"Setthorns"},"geometry":{"type":"Point","coordinates":[-1.625824112,50.79994077]}},{"type":"Feature","properties":{"site":"Ocknell"},"geometry":{"type":"Point","coordinates":[-1.64761039,50.90614079]}}]}